[
  {
    "name": "Ce La Vi",
    "image":"https://www.marinabaysands.com/content/dam/marinabaysands/restaurants-listing/ce-la-vi-skybar/clvsb-masthead-1920x823.jpg",
    "type": "restaurant",
    "cuisine": "Contemporary Asian",
    "lat": 1.2836,
    "lng": 103.8607,
    "description": "Rooftop restaurant and sky bar perched on level 57 of Marina Bay Sands. Stunning 360° views of the Singapore skyline. Come for sunset cocktails or the tasting menu.",
    "address": "1 Bayfront Ave, Tower 3 Level 57, Marina Bay Sands, Singapore 018971",
    "phone": "+65 6508 2188",
    "price": "$$$$",
    "rating": "4.4",
    "ratingSource": "Google",
    "link": "https://sg.celavi.com"
  },
  {
    "name": "Wild Honey",
    "image":"https://images.squarespace-cdn.com/content/v1/606ac2fd3a2a3245a5fb4087/1639984096645-DC7I0O40NX588FIA5SAP/Flinders+Lane",
    "type": "restaurant",
    "cuisine": "International Breakfast",
    "lat": 1.3038,
    "lng": 103.8322,
    "description": "All-day breakfast institution on Orchard Road serving beautifully plated dishes inspired by morning meals from around the world — think Tunisian shakshuka, Scandinavian smoked salmon, and an Australian full. Always busy; arrive early or expect a wait.",
    "address": "333A Orchard Rd, #03-01/02 Mandarin Gallery, Singapore 238897",
    "phone": "+65 6235 3900",
    "price": "$$$",
    "rating": "4.4",
    "ratingSource": "Google",
    "link": "https://www.wildhoney.com.sg"
  },
  {
    "name": "Atlas Bar",
    "image":"https://assets.hassellstudio.com/imager/uploads/ATLAS_Projects_full-width_position01_dae9d742f19b6d4d8e59504c1a71c1db.jpg",
    "type": "bar",
    "lat": 1.2998,
    "lng": 103.8486,
    "description": "Grand art deco gin palace inside a 1920s-style lobby tower. One of the world's great bar rooms — 1,300 gins on a three-storey tower, excellent cocktails, and an atmosphere that rewards lingering. Perfect for a long afternoon.",
    "address": "600 North Bridge Rd, Parkview Square, Singapore 188778",
    "phone": "+65 6396 4466",
    "price": "$$$",
    "rating": "4.6",
    "ratingSource": "Google",
    "link": "https://atlasbar.sg"
  },
  {
    "name": "Long Bar at Raffles",
    "image":"https://encrypted-tbn0.gstatic.com/images?q=tbn:ANd9GcTIEKNyLyGZg_EjIzsWOTVobVdxRyk4OoRo1w&s",
    "type": "bar",
    "lat": 1.2953,
    "lng": 103.8520,
    "description": "The birthplace of the Singapore Sling. Colonial rattan fans, peanut shells on the floor, and that drink. Touristy? Yes. Worth it? Also yes. Order the original recipe and sit in the main hall.",
    "address": "1 Beach Rd, Raffles Hotel, Singapore 189673",
    "phone": "+65 6337 1886",
    "price": "$$$",
    "rating": "4.3",
    "ratingSource": "Google",
    "link": "https://www.raffles.com/singapore/dining/long-bar"
  },
  {
    "name": "Jumbo Seafood",
    "image":"https://c8.alamy.com/comp/BDD168/people-having-dinner-at-the-jumbo-seafood-restaurant-east-coast-parkway-BDD168.jpg",
    "type": "restaurant",
    "cuisine": "Seafood",
    "lat": 1.2903,
    "lng": 103.8463,
    "description": "The definitive chilli crab experience at Clarke Quay. Order the black pepper crab too. Messy, loud, and completely essential. Book ahead — the waterfront terrace fills up fast.",
    "address": "30 Merchant Rd, #01-01/02 Riverside Point, Singapore 058282",
    "phone": "+65 6532 3435",
    "price": "$$$",
    "rating": "4.4",
    "ratingSource": "Google",
    "link": "https://www.jumboseafood.com.sg"
  },
  {
    "name": "Lau Pa Sat",
    "image":"https://dynamic-media-cdn.tripadvisor.com/media/photo-o/2a/12/53/26/lau-pa-sat.jpg?w=900&h=-1&s=1",
    "type": "restaurant",
    "cuisine": "Hawker",
    "lat": 1.2803,
    "lng": 103.8508,
    "description": "Victorian cast-iron hawker centre in the heart of the financial district. Best at lunch when office workers pack every table. Satay stalls fire up at night along the adjacent street. A genuine Singapore institution.",
    "address": "18 Raffles Quay, Singapore 048582",
    "price": "$",
    "rating": "4.3",
    "ratingSource": "Google",
    "link": "https://www.laupasat.sg/"
  },
  {
    "name": "Clarke Quay",
    "image":"https://encrypted-tbn0.gstatic.com/images?q=tbn:ANd9GcS5PS4QDPzwcxv4z5v06iNGYFd3q3lCQTSH1A&s",
    "type": "poi",
    "lat": 1.2891,
    "lng": 103.8465,
    "description": "Singapore's riverside entertainment strip — restored shophouses crammed with bars, restaurants, and clubs along the Singapore River. Best explored on foot in the early evening before it gets crowded. Good starting point for a night out.",
    "address": "Clarke Quay, Singapore 179024",
    "rating": "4.2",
    "ratingSource": "Google",
    "link": "https://www.cntraveler.com/activities/clarke-quay/clarke-quay"
  },
  {
    "name": "Haji Lane",
    "image":"https://encrypted-tbn0.gstatic.com/images?q=tbn:ANd9GcS7Ms3-mMLf5RY7QCH-fFr0injGs3QfqAdQQg&s",
    "type": "poi",
    "lat": 1.3022,
    "lng": 103.8592,
    "description": "A narrow Kampong Glam alley lined with indie boutiques, vintage shops, and colourful street murals. Excellent for a slow afternoon browse followed by drinks at one of the lane's small bars. The surrounding Arab Quarter is equally worth exploring.",
    "address": "Haji Lane, Singapore 189232",
    "rating": "4.4",
    "ratingSource": "Google",
    "link": "https://www.bloggeratlarge.com/get-down-haji-lane-singapore/"
  },
  {
    "name": "The Biosphere",
    "image":"https://thumbs.dreamstime.com/b/sun-reflects-off-waterfall-heart-changi-singapore-airport-jewel-terminal-indoor-tress-plants-green-wall-166635288.jpg",
    "type": "poi",
    "lat": 1.2816,
    "lng": 103.8636,
    "description": "Gardens by the Bay's two climate-controlled conservatories — the Flower Dome (world's largest glass greenhouse) and the Cloud Forest (a 35-metre indoor waterfall surrounded by rare mountain plants). A genuine engineering marvel in the middle of the city.",
    "address": "18 Marina Gardens Dr, Singapore 018953",
    "rating": "4.7",
    "ratingSource": "Google",
    "link": "https://www.gardensbythebay.com.sg"
  },
  {
    "name": "Marina Bay Sands",
    "image":"https://ik.imgkit.net/3vlqs5axxjf/external/ik-seo/https://www.cfmedia.vfmleonardo.com/imageRepo/2/0/186/208/259/20240826_Exterior_Architecture-17_O/Marina-Bay-Sands-Singapore-Exterior.jpg?tr=w-656%2Ch-390%2Cfo-auto",
    "type": "poi",
    "lat": 1.2834,
    "lng": 103.8607,
    "description": "The iconic three-tower hotel connected by a rooftop infinity pool. Home to Ce La Vi, a casino, and the Shoppes mall. The SkyPark observation deck offers the best panoramic view of Marina Bay. The visual centrepiece of modern Singapore.",
    "address": "10 Bayfront Ave, Singapore 018956",
    "phone": "+65 6688 8868",
    "rating": "4.6",
    "ratingSource": "Google",
    "link": "https://www.marinabaysands.com"
  },
  {
    "name": "Sentosa Island",
    "image":"https://www.pelago.co/img/collections/sentosa-island/1016-0548_sentosa-island-singapore-xlarge.jpg",
    "type": "poi",
    "lat": 1.2494,
    "lng": 103.8303,
    "description": "Singapore's resort island connected to the mainland by cable car, monorail, and boardwalk. Home to Universal Studios, beach clubs, and the southern tip of continental Asia.",
    "address": "Sentosa, Singapore",
    "rating": "4.5",
    "ratingSource": "Google",
    "link": "https://www.sentosa.com.sg"
  },
  {
    "name": "Lazarus Island Beach",
    "image":"https://marinasouthferries.com/cdn/shop/t/2/assets/laz-shore.jpg?v=61009733517823119291615947545",
    "type": "poi",
    "lat": 1.2167,
    "lng": 103.8583,
    "description": "One of Singapore's most pristine and uncrowded beaches, accessible only by ferry from Marina South Pier. Crystal clear water, white sand, and almost no development. Bring your own supplies.",
    "address": "Lazarus Island, Southern Islands, Singapore",
    "rating": "4.6",
    "ratingSource": "Google",
    "link": "https://handluggageonly.co.uk/theres-an-amazing-secret-beach-in-singapore-that-no-one-is-telling-you-about/"
  },
  { "name": "National Gallery Singapore", "type": "poi", "lat": 1.29, "lng": 103.851356, "description": "The region's largest museum of modern Singapore and Southeast Asian art, housed inside two national monuments — the former Supreme Court and City Hall. Free to enter the main atrium. The rooftop bar Smoke & Mirrors has one of the best views of the Padang.", "address": "1 St Andrew's Road, Singapore 178957", "link": "http://www.nationalgallery.sg" },
  { "name": "Sultan Mosque", "type": "poi", "lat": 1.302, "lng": 103.859171, "description": "The focal point of Singapore's Muslim community and the centrepiece of Kampong Glam — an imposing 1928 mosque with a golden dome visible from several streets away. Visitors are welcome outside prayer times. The surrounding Arab Quarter is excellent for exploring on foot.", "address": "3 Muscat Street, Singapore 198833", "link": "http://www.sultanmosque.org.sg" },
  { "name": "Sri Mariamman Temple", "type": "poi", "lat": 1.282, "lng": 103.84538, "description": "The oldest Hindu temple in Singapore, built in 1827 in the heart of Chinatown. The ornate gopuram tower above the entrance is covered in hundreds of painted figures from Hindu mythology — one of the most visually striking facades in the city. Free entry.", "address": "244 South Bridge Road, Singapore 058793", "link": "http://heb.gov.sg" },
  { "name": "Armenian Church", "type": "poi", "lat": 1.293, "lng": 103.84966, "description": "The oldest Christian church in Singapore — a neoclassical 1835 building by George Coleman in a quiet garden near the Civic District. Small, perfectly proportioned, and completely off the tourist circuit despite being a national monument. Free entry.", "address": "60 Hill Street, Singapore 179366", "link": "http://www.armeniansinasia.org/" },
  { "name": "CHIJMES", "type": "poi", "lat": 1.295, "lng": 103.85168, "description": "A 19th-century Gothic chapel and convent complex transformed into one of Singapore's most atmospheric dining and drinking precincts — restaurants and bars set around a beautifully lit courtyard. The chapel itself hosts concerts and events. Best in the evening.", "address": "30 Victoria Street, Singapore 187996", "link": "http://chijmes.com.sg/" },
  { "name": "St Andrew's Cathedral", "type": "poi", "lat": 1.292, "lng": 103.85231, "description": "Singapore's largest cathedral and a stellar example of colonial Gothic Revival architecture — white plastered walls, flying buttresses, and a spire that has anchored the Civic District skyline since 1862. Free entry. A genuinely peaceful spot in the middle of the city.", "address": "11 St Andrew's Road, Singapore 178959", "link": "http://www.livingstreams.org.sg/sac/visitors.html" },
  { "name": "Chinatown Food Street", "type": "poi", "lat": 1.2825533, "lng": 103.8437924, "description": "Smith Street in Chinatown — a pedestrianised al fresco hawker street lined with open-air food stalls serving laksa, satay, chilli crab, and BBQ seafood. One of the most atmospheric places in Singapore to eat outside at night.", "address": "Smith Street, Chinatown, Singapore 058938", "link": "https://www.visitsingapore.com" },
  { "name": "Chinatown Heritage Centre", "type": "poi", "lat": 1.284, "lng": 103.84435, "description": "Three restored shophouses in Pagoda Street recreating the cramped living conditions of Singapore's early Chinese immigrants — evocative dioramas, oral histories, and artefacts that bring the 19th-century migrant experience vividly to life.", "address": "48 Pagoda Street, Singapore 059207", "link": "http://www.singaporechinatown.com.sg/" },
  { "name": "Thian Hock Keng Temple", "type": "poi", "lat": 1.281, "lng": 103.84763, "description": "The oldest and most important Hokkien temple in Singapore, built in 1839 without a single nail and dedicated to Mazu, the Goddess of the Sea. Beautifully restored, with cast-iron railings from Glasgow and Dutch tiles alongside intricate Chinese craftsmanship.", "address": "158 Telok Ayer Street, Singapore 068613", "link": "http://www.thianhockkeng.com.sg" },
  { "name": "Eurasian Heritage Centre", "type": "poi", "lat": 1.31, "lng": 103.89942, "description": "A heritage museum in the Katong area dedicated to Singapore's Eurasian community — one of the country's oldest and most distinctive communities, with roots in Portuguese, Dutch, and British colonial Singapore. A genuine insight into a culture rarely covered elsewhere.", "address": "139 Ceylon Road, Singapore 429744", "link": "http://www.eurasians.org.sg/" },
  { "name": "Tiong Bahru Shophouses", "type": "poi", "lat": 1.284, "lng": 103.8336, "description": "Singapore's best-preserved Art Deco residential neighbourhood — streamline Moderne flats built in the 1930s now surrounded by excellent independent cafés, bookshops, and bakeries. Walk Seng Poh Road and the surrounding streets for the full effect.", "address": "Seng Poh Road, Tiong Bahru, Singapore", "link": "https://www.visitsingapore.com" },
  { "name": "Capitol Singapore", "type": "poi", "lat": 1.294, "lng": 103.85157, "description": "A restored 1930s entertainment complex near City Hall — the Capitol Theatre's original facade preserved alongside a hotel and retail block. The building's Palladian exterior is one of the finest examples of colonial-era architecture in Singapore.", "address": "11 Stamford Road, Singapore 178884", "link": "http://www.capitolsingapore.com" },
  { "name": "Esplanade Theatres on the Bay", "type": "poi", "lat": 1.29, "lng": 103.85528, "description": "Singapore's premier performing arts centre — nicknamed 'the Durian' for its spiky aluminium sunshade shell. The outdoor concourse stages free performances most evenings. Check the calendar for what's on — the programming ranges from Singaporean theatre to international orchestras.", "address": "1 Esplanade Drive, Singapore 038981", "link": "http://www.esplanade.com" },
  { "name": "The Interlace", "type": "poi", "lat": 1.282, "lng": 103.80305, "description": "OMA's landmark residential complex in the southern part of the island — 31 apartment blocks stacked in a hexagonal arrangement like a vast game of Jenga. One of the most significant works of contemporary architecture in Singapore. Best seen from Depot Road.", "address": "180 Depot Road, Singapore 109684", "link": "http://www.theinterlace.com" },
  { "name": "PARKROYAL on Pickering", "type": "poi", "lat": 1.286, "lng": 103.846522, "description": "WOHA's biophilic hotel in Chinatown — a hotel building that appears to grow out of a terraced garden, with 15,000 square metres of sky gardens, waterfalls, and planted terraces cascading down the facade. One of the most photographed buildings in Singapore.", "address": "3 Upper Pickering Street, Singapore 058289", "link": "http://www.parkroyalhotels.com" },
  { "name": "LASALLE College of the Arts", "type": "poi", "lat": 1.303, "lng": 103.8516, "description": "A dramatic 2007 campus by RSP Architects — interconnected glass pavilions arranged around an open courtyard that evokes a rain forest canopy. The Institute of Contemporary Arts inside hosts free exhibitions. Worth visiting even if you have no interest in the college.", "address": "1 McNally Street, Singapore 187940", "link": "https://www.lasalle.edu.sg" },
  { "name": "Kranji War Memorial", "type": "poi", "lat": 1.419, "lng": 103.75749, "description": "A hilltop cemetery in the north of Singapore honouring over 4,400 Commonwealth servicemen and women killed during the Malayan campaign and the fall of Singapore in World War II. Quiet, beautifully maintained, and genuinely moving.", "address": "9 Woodlands Road, Singapore 738656", "link": "http://bit.ly/19MZ0SB" },
  { "name": "Sri Veeramakaliamman Temple", "type": "poi", "lat": 1.308, "lng": 103.85258, "description": "One of the oldest and most visually striking Hindu temples in Singapore, in the heart of Little India — the elaborate gopuram is covered in colourful sculptures of deities. Particularly spectacular during the Deepavali festival in October.", "address": "141 Serangoon Road, Singapore 218042", "link": "http://www.sriveeramakaliamman.com/" },
  { "name": "Maghain Aboth Synagogue", "type": "poi", "lat": 1.298, "lng": 103.85081, "description": "The oldest synagogue in Southeast Asia, built in 1878 — a Moorish-influenced building on Waterloo Street that serves Singapore's small Jewish community. Visits by appointment only, but the exterior alone is worth seeing from the street.", "address": "24/26 Waterloo Street, Singapore 187950", "link": "http://www.singaporejews.com" },
  { "name": "Malay Heritage Centre", "type": "poi", "lat": 1.303, "lng": 103.85986, "description": "A museum dedicated to the history and culture of Singapore's Malay community, housed in the former Istana Kampong Gelam — the palace of the Sultans of Singapore. The kampong and the surrounding Kampong Glam neighbourhood are equally worth exploring.", "address": "85 Sultan Gate, Singapore 198501", "link": "http://www.malayheritage.org.sg" },
  { "name": "Peranakan Museum", "type": "poi", "lat": 1.294, "lng": 103.8492, "description": "Singapore's finest museum dedicated to Peranakan (Straits Chinese) culture — exquisite porcelain, embroidered clothing, jewellery, and furniture in a beautifully converted 1910 schoolhouse. One of the best small museums in Southeast Asia.", "address": "39 Armenian Street, Singapore 179941", "link": "http://peranakanmuseum.org.sg/" },
  { "name": "Raffles Hotel", "type": "poi", "lat": 1.296, "lng": 103.85404, "description": "Singapore's most iconic colonial hotel, open since 1887 and fully restored in 2019 — grand whitewashed Baroque architecture, the Long Bar where the Singapore Sling was invented, and a calm courtyard garden. Worth walking through even if you're not staying.", "address": "1 Beach Road, Singapore 189673", "link": "http://www.raffleshotel.com" },
  { "name": "Gillman Barracks", "type": "poi", "lat": 1.278, "lng": 103.80459, "description": "A former British military barracks converted into Singapore's contemporary art gallery district — around a dozen international galleries in colonial bungalows set in a forested compound. Free entry to all galleries. One of the most peaceful places in the city.", "address": "9 Lock Road, Singapore 108937", "link": "https://www.gillmanbarracks.com/" },
  { "name": "ArtScience Museum", "type": "poi", "lat": 1.286, "lng": 103.85929, "description": "Moshe Safdie's lotus-shaped museum at Marina Bay Sands — the ten 'petals' house world-class touring exhibitions at the intersection of art, science, culture, and technology. One of Singapore's most distinctive buildings from both inside and out.", "address": "6 Bayfront Ave, Singapore 018974", "link": "http://www.marinabaysands.com/museum.html" },
  { "name": "Singapore Art Museum", "type": "poi", "lat": 1.297, "lng": 103.851068, "description": "Singapore's contemporary art museum focused on Southeast Asian art — housed in a restored 1855 Catholic school building on Bras Basah Road. The permanent collection spans painting, sculpture, and moving image across the region.", "address": "71 Bras Basah Road, Singapore 189555", "link": "http://www.singaporeartmuseum.sg" },
  { "name": "National Design Centre", "type": "poi", "lat": 1.299, "lng": 103.85351, "description": "Singapore's hub for design culture — exhibitions, talks, and a design library in a restored 1845 convent building on Middle Road. The exhibitions change regularly and the building itself is worth seeing.", "address": "111 Middle Road, Singapore 188969", "link": "http://www.designsingapore.org" },
  { "name": "Victoria Theatre & Concert Hall", "type": "poi", "lat": 1.288, "lng": 103.851641, "description": "Singapore's oldest performing arts venue — a Victorian Renaissance building on the waterfront that reopened in 2014 after a four-year restoration. Home to the Singapore Symphony Orchestra. The clock tower is one of the most photographed colonial landmarks in the city.", "address": "11 Empress Place, Singapore 179558", "link": "https://www.nac.gov.sg" },
  { "name": "Asian Civilisations Museum", "type": "poi", "lat": 1.287, "lng": 103.851723, "description": "Eleven galleries of Asian art and artefacts in the 1865 Empress Place Building beside the Singapore River — ancient Chinese ceramics, Southeast Asian bronzes, South Asian textiles, and West Asian metalwork. One of Singapore's best museums.", "address": "1 Empress Place, Singapore 179555", "link": "http://acm.org.sg/" },
  { "name": "National Museum of Singapore", "type": "poi", "lat": 1.297, "lng": 103.84883, "description": "Singapore's oldest museum in a magnificent 1887 colonial building with a glass rotunda addition — progressive galleries telling the country's history from Sang Nila Utama through independence. The stained-glass dome alone is worth visiting.", "address": "93 Stamford Road, Singapore 178897", "link": "http://nationalmuseum.sg/" },
  { "name": "MINT Museum of Toys", "type": "poi", "lat": 1.296, "lng": 103.85439, "description": "Five floors of vintage toys and memorabilia from over 40 countries spanning the 1840s to the 1980s — over 50,000 items including tin toys, action figures, and automata. A genuinely unexpected delight near Raffles Hotel.", "address": "26 Seah Street, Singapore 188382", "link": "http://www.emint.com" },
  { "name": "Sun Yat Sen Memorial Hall", "type": "poi", "lat": 1.328, "lng": 103.84692, "description": "A white Edwardian villa in Novena that served as the Southeast Asian operational base of Dr Sun Yat Sen's revolutionary movement to overthrow the Qing Dynasty. A carefully curated museum of Chinese revolutionary history in an unlikely setting.", "address": "12 Tai Gin Road, Singapore 327874", "link": "http://www.sysnmh.org.sg" },
  { "name": "Changi Museum", "type": "poi", "lat": 1.362, "lng": 103.97403, "description": "An emotional exploration of Singapore during the Japanese Occupation — recreated prison cells, personal testimonies, and the famous Changi Murals. Located near the original Changi Prison site in the east of the island. Essential context for understanding Singapore's history.", "address": "1000 Upper Changi Road North, Singapore 507707", "link": "http://www.changimuseum.sg" },
  { "name": "Old Ford Factory", "type": "poi", "lat": 1.352, "lng": 103.76883, "description": "The site where the British surrendered to Japan on 15 February 1942 — the former Ford assembly plant in Bukit Timah now houses a museum documenting the fall of Singapore and the Japanese Occupation. A significant and sobering piece of history.", "address": "351 Upper Bukit Timah Road, Singapore 588192", "link": "http://www.nas.gov.sg/moff/Home.aspx" },
  { "name": "Singapore City Gallery", "type": "poi", "lat": 1.28, "lng": 103.84513, "description": "The Urban Redevelopment Authority's free exhibition space showing the physical transformation of Singapore through scale models, interactive displays, and urban planning documents. The centrepiece 1:400 scale model of the entire city is extraordinary.", "address": "45 Maxwell Road, Singapore 069118", "link": "http://www.ura.gov.sg" },
  { "name": "Merlion Park", "type": "poi", "lat": 1.287, "lng": 103.854552, "description": "The waterfront park housing Singapore's most famous symbol — the half-lion, half-fish Merlion statue at the mouth of the Singapore River. Touristy but the view of Marina Bay Sands from here is genuinely one of the great urban panoramas in Asia.", "address": "One Fullerton, Singapore 049213", "link": "https://www.visitsingapore.com" },
  { "name": "Singapore Flyer", "type": "poi", "lat": 1.289, "lng": 103.863137, "description": "One of the world's largest observation wheels at 165 metres — 30-minute capsule rides with views stretching to Batam, Indonesia and the Johor Bahru skyline on a clear day. Best at dusk when the city lights up across the bay.", "address": "30 Raffles Avenue, Singapore 039803", "link": "http://www.singaporeflyer.com" },
  { "name": "Marina Barrage", "type": "poi", "lat": 1.281, "lng": 103.87159, "description": "A dam across the Marina Channel that created Singapore's first city reservoir — the rooftop green provides one of the best unobstructed views of the Marina Bay skyline and is a popular kite-flying spot on weekends. Free to visit.", "address": "8 Marina Gardens Drive, Singapore 018951", "link": "https://www.pub.gov.sg/marinabarrage" },
  { "name": "Henderson Waves", "type": "poi", "lat": 1.276, "lng": 103.815254, "description": "Singapore's highest pedestrian bridge — a sinuous wave-shaped walkway 36 metres above Henderson Road, connecting Telok Blangah Hill Park to Mount Faber as part of the Southern Ridges trail. Particularly beautiful at night when the structure is lit.", "address": "Henderson Road, Singapore", "link": "http://www.nparks.gov.sg" },
  { "name": "Pinnacle@Duxton", "type": "poi", "lat": 1.275, "lng": 103.84142, "description": "The world's tallest public housing development — seven 50-storey towers connected by sky gardens at levels 26 and 50. The 50th-floor skybridge is open to visitors for a small fee and offers a panoramic view of Tanjong Pagar and the southern port.", "address": "1 Cantonment Road, Singapore 080001", "link": "http://www.pinnacleduxton.com.sg" },
  { "name": "Hajjah Fatimah Mosque", "type": "poi", "lat": 1.303, "lng": 103.86285, "description": "A 19th-century mosque in Kampong Glam notable for its slightly tilting minaret — built in a hybrid style blending European, Malay, and Chinese architectural elements. One of Singapore's six national monument mosques.", "address": "4001 Beach Road, Singapore 199584", "link": "https://www.visitsingapore.com" },
  { "name": "Haw Par Villa", "type": "poi", "lat": 1.286, "lng": 103.78314, "description": "A 1937 theme park of Chinese mythology on Pasir Panjang Road — thousands of statues and dioramas depicting scenes from Chinese folklore, legends, and moral tales. The infamous Ten Courts of Hell exhibit is not for the faint-hearted. Free entry and genuinely unforgettable.", "address": "262 Pasir Panjang Road, Singapore 118628", "link": "https://www.hawparvilla.sg" },
  { "name": "NUS Baba House", "type": "poi", "lat": 1.277, "lng": 103.83731, "description": "A meticulously restored 1895 Peranakan townhouse in Neil Road preserving the original family's possessions, furniture, and decorative items in situ — a rare example of a 19th-century Singapore home frozen in time. Visits by guided tour only.", "address": "157 Neil Road, Singapore 088883", "link": "http://www.nus.edu.sg/museum/baba" },
  { "name": "Hong San See Temple", "type": "poi", "lat": 1.293, "lng": 103.841222, "description": "A 1908 Hokkien temple on Mohamed Sultan Road, restored by craftsmen from Fujian province to its original condition — intricate wood carvings, painted ceramic figures on the ridge, and a remarkable painted ceiling. A national monument that receives very few visitors.", "address": "31 Mohamed Sultan Road, Singapore 238969", "link": "https://www.visitsingapore.com" },
  { "name": "Kampong Glam", "type": "poi", "lat": 1.302, "lng": 103.8595, "description": "Singapore's historic Malay and Arab quarter — the Sultan Mosque, the Istana Kampong Gelam palace, Haji Lane's indie boutiques, and Arab Street's textile and carpet shops. One of the most atmospheric and walkable neighbourhoods in Singapore.", "address": "3 Muscat Street, Singapore 198833", "link": "http://www.kampongglam.org.sg/" },
  { "name": "Red Dot Design Museum", "type": "poi", "lat": 1.278, "lng": 103.84572, "description": "A museum in the former Traffic Police building holding over 1,000 Red Dot Award-winning products — from furniture and consumer electronics to packaging and visual communication. The building itself, a Modernist 1930s structure, is worth seeing.", "address": "28 Maxwell Road, Singapore 069120", "link": "http://museum.red-dot.sg" },
  { "name": "Reflections at Bukit Chandu", "type": "poi", "lat": 1.28, "lng": 103.79433, "description": "A heritage centre in a restored colonial bungalow on Pasir Panjang Ridge commemorating the Battle of Pasir Panjang — one of the fiercest engagements of the Malayan campaign in February 1942. The surrounding Kent Ridge Park is worth exploring.", "address": "31-K Pepys Road, Singapore 118439", "link": "http://www.nhb.gov.sg/museums/reflections-at-bukit-chandu" },
  { "name": "Kampong Glam & Bras Basah Arts District", "type": "poi", "lat": 1.301, "lng": 103.85624, "description": "The cultural precinct stretching from the Civic District to Kampong Glam — museums, heritage buildings, art schools, and the Bugis street market. Singapore's most concentrated area of cultural institutions within easy walking distance of each other.", "address": "220 Victoria Street, Singapore 188022", "link": "http://www.brasbasahbugis.sg/" },
  { "name": "Fort Canning Park", "type": "poi", "lat": 1.295, "lng": 103.846509, "description": "A hilltop park in the heart of the city with 700 years of history — from the seat of Malay royalty to a British fort to the Allied command centre during WWII. The WWII Battle Box bunker and the spice garden are both worth visiting.", "address": "Fort Canning Park, Singapore", "link": "http://www.nparks.gov.sg" },
  { "name": "East Coast Park", "type": "poi", "lat": 1.301, "lng": 103.912187, "description": "A 15km coastal park along the eastern shoreline — Singapore's most popular outdoor space for cycling, rollerblading, kite flying, and eating seafood at open-air restaurants along the beach. The lagoon end has decent swimming. Rent bikes at the park entrances.", "address": "East Coast Parkway, Singapore", "link": "http://www.nparks.gov.sg" },
  { "name": "Singapore Botanic Gardens", "type": "poi", "lat": 1.314, "lng": 103.815914, "description": "A UNESCO World Heritage Site and the green heart of Singapore — 183 acres of themed gardens, heritage trees, and the National Orchid Garden with 1,000 species and 2,000 hybrids. Free to enter the main gardens. One of the great tropical gardens in the world.", "address": "1 Cluny Road, Singapore 259569", "link": "http://www.sbg.org.sg" },
  { "name": "MacRitchie Nature Reserve", "type": "poi", "lat": 1.345, "lng": 103.822346, "description": "Singapore's oldest nature reserve surrounding MacRitchie Reservoir — walking trails through primary rainforest, a 250-metre TreeTop Walk suspension bridge, and wild macaques and monitor lizards throughout. The full loop trail takes about 3 hours.", "address": "MacRitchie Reservoir Park, Singapore", "link": "http://www.nparks.gov.sg" },
  { "name": "Singapore Zoo & Night Safari", "type": "poi", "lat": 1.404, "lng": 103.793023, "description": "The best open-concept zoo in Asia — animals in naturalistic habitats across themed zones in the Mandai forest. The adjacent Night Safari is the world's first nocturnal wildlife park. Book the tram ride for the Night Safari.", "address": "80 Mandai Lake Road, Singapore 729826", "link": "http://www.zoo.com.sg" },
  { "name": "Pulau Ubin", "type": "poi", "lat": 1.414, "lng": 103.959261, "description": "A small island off the northeast coast accessible by bumboat from Changi Village — one of the last places in Singapore that looks like it did in the 1960s. Rent a bicycle, explore the kampong, and visit Chek Jawa's mangrove wetlands at the eastern tip.", "address": "Pulau Ubin, Singapore", "link": "http://www.nparks.gov.sg" },
  { "name": "Little India", "type": "poi", "lat": 1.307, "lng": 103.84982, "description": "Singapore's most sensory neighbourhood — flower garland stalls, spice shops, sari boutiques, and Tamil temples along Serangoon Road. Best on a Sunday evening when the community gathers. The Tekka Centre food court inside has excellent banana leaf rice.", "address": "Serangoon Road, Singapore", "link": "http://www.littleindia.com.sg/" },
  { "name": "Orchard Road", "type": "poi", "lat": 1.304, "lng": 103.83249, "description": "Asia's most famous shopping street — 2.2km of malls, flagship stores, and covered walkways. Ion Orchard, Paragon, and Ngee Ann City anchor the main stretch. The basement food courts are excellent and air-conditioned. Dazzlingly lit during Christmas.", "address": "Orchard Road, Singapore", "link": "http://www.orchardroad.org/" },
  { "name": "Joo Chiat & Katong", "type": "poi", "lat": 1.306, "lng": 103.90448, "description": "Singapore's best-preserved Peranakan neighbourhood in the east — brightly painted shophouses, excellent laksa, and a slower pace than the city centre. East Coast Road and Joo Chiat Road are both worth walking. The stretch of terraces near 328 Katong Laksa is the highlight.", "address": "East Coast Road, Singapore", "link": "https://www.visitsingapore.com" },
  { "name": "Chinatown", "type": "poi", "lat": 1.282, "lng": 103.843771, "description": "Singapore's historic Chinese quarter — restored shophouses, Pagoda Street's souvenir stalls, Sri Mariamman Temple, the Buddha Tooth Relic Temple, and some of the city's best hawker food. Best in the early morning or evening when the heat eases.", "address": "Chinatown, Singapore", "link": "http://www.chinatown.sg/" },
  { "name": "Buddha Tooth Relic Temple", "type": "poi", "lat": 1.282, "lng": 103.84438, "description": "A Tang Dynasty-inspired Buddhist temple in Chinatown housing a tooth relic of the Buddha — four floors of Buddhist art and artefacts culminating in a rooftop garden and 300kg gold stupa in the relic chamber. Free entry to all levels.", "address": "288 South Bridge Road, Singapore 058840", "link": "http://www.btrts.org.sg/" },
  { "name": "Southern Ridges Walk", "type": "poi", "lat": 1.281, "lng": 103.817589, "description": "A 10km trail connecting Mount Faber, Telok Blangah Hill, and Kent Ridge through forest canopy — the Henderson Waves bridge is the architectural centrepiece. Best walked in the early morning or at dusk. Takes about 3-4 hours end to end.", "address": "Henderson Road, Singapore", "link": "http://www.nparks.gov.sg" },
  { "name": "Mount Faber & Cable Car", "type": "poi", "lat": 1.271, "lng": 103.819206, "description": "A forested hill in the southern part of Singapore with harbour views and the cable car station linking to Sentosa — the cable car ride over the sea is one of the best views of the port. The hilltop restaurants are decent enough to justify a sunset dinner.", "address": "109 Mount Faber Road, Singapore", "link": "http://www.mountfaber.com.sg/" },
  { "name": "Kusu Island", "type": "poi", "lat": 1.223, "lng": 103.860523, "description": "A small island south of Singapore accessible by ferry from Marina South Pier — a Taoist temple, a Malay shrine, and a clean lagoon beach with calm water. Best visited on a weekday when the island is nearly empty. The pilgrimage season in October draws large crowds.", "address": "Kusu Island, Singapore", "link": "http://www.sentosa.com.sg" },
  { "name": "Chek Jawa Wetlands", "type": "poi", "lat": 1.408, "lng": 103.96371, "description": "One of Singapore's most biodiverse ecosystems on the eastern tip of Pulau Ubin — mangroves, coral rubble flats, and seagrass lagoons visible from a 1km coastal boardwalk. A 21-metre viewing tower overlooks the wetlands. Only accessible as part of a Pulau Ubin trip.", "address": "Chek Jawa, Pulau Ubin, Singapore", "link": "https://www.nparks.gov.sg/sbwr" },
  { "name": "Labrador Nature Reserve", "type": "poi", "lat": 1.266, "lng": 103.801944, "description": "A coastal nature reserve in the southwest with WWI and WWII fortifications hidden in the jungle — tunnels, gun emplacements, and a sea wall. The most historically layered green space in Singapore, almost always quiet.", "address": "Labrador Villa Road, Singapore", "link": "http://www.nparks.gov.sg" },
  { "name": "Sungei Buloh Wetland Reserve", "type": "poi", "lat": 1.447, "lng": 103.730149, "description": "Singapore's premier birdwatching reserve in the far north — migratory shorebirds from September to March, resident monitor lizards, otters, and mudskippers year-round. The boardwalk loops take 1-2 hours. Bring binoculars.", "address": "301 Neo Tiew Crescent, Singapore 718925", "link": "https://www.nparks.gov.sg/sbwr" },
  { "name": "Universal Studios Singapore", "type": "poi", "lat": 1.254, "lng": 103.823808, "description": "Southeast Asia's only Universal Studios theme park on Sentosa — seven themed zones from Hollywood to Ancient Egypt to Jurassic World. The Battlestar Galactica duelling roller coasters and the Transformers ride are the headline attractions.", "address": "8 Sentosa Gateway, Sentosa Island, Singapore 098269", "link": "http://www.rwsentosa.com" },
  { "name": "S.E.A. Aquarium", "type": "poi", "lat": 1.257, "lng": 103.819493, "description": "One of the world's largest aquariums on Sentosa — over 100,000 marine animals in 49 habitats, including the Open Ocean exhibit with manta rays, sharks, and a 36-metre viewing panel. Best visited on a weekday morning.", "address": "8 Sentosa Gateway, Sentosa Island, Singapore 098269", "link": "http://www.rwsentosa.com" },
  { "name": "Singapore River", "type": "poi", "lat": 1.288, "lng": 103.84676, "description": "The historic artery of Singapore — walk from Merlion Park past Boat Quay's restaurants to Clarke Quay and Robertson Quay along the north bank. The bumboat quays and restored shophouses tell the full story of Singapore's trading past. Best in the early evening.", "address": "Singapore River, Singapore", "link": "http://singapore-river.com/" },
  { "name": "Fuk Tak Chi Museum", "type": "poi", "lat": 1.283, "lng": 103.84887, "description": "A restored 1820s Hakka-Cantonese temple in Telok Ayer Street, once the oldest Chinese temple in Singapore and now a small museum — the terracotta roof tiles, lacquered screens, and original temple furniture are all in place.", "address": "76 Telok Ayer Street, Singapore 048464", "link": "http://www.fareastsquare.com.sg" },
  { "name": "Katong Antique House", "type": "poi", "lat": 1.307, "lng": 103.90714, "description": "A private Peranakan family home on East Coast Road open as an informal museum — the owner Peter Wee conducts tours through rooms filled with heirlooms, antique furniture, and family photographs spanning five generations of Straits Chinese life.", "address": "208 East Coast Road, Singapore 428608", "link": "https://www.visitsingapore.com" },
  { "name": "Chinese Garden", "type": "poi", "lat": 1.339, "lng": 103.73, "description": "A classical Chinese imperial garden in Jurong Lake — stone bridges, pagodas, and covered walkways set around the lake in the west of Singapore. The seven-storey pagoda offers good views. Quiet on weekdays and particularly beautiful in the early morning.", "address": "1 Chinese Garden Road, Singapore 619795", "link": "https://www.visitsingapore.com" },
  { "name": "HarbourFront", "type": "poi", "lat": 1.265, "lng": 103.82057, "description": "Singapore's southern gateway — the VivoCity mall, the cable car terminus to Sentosa, and the cruise terminal where ships depart for Indonesia and Malaysia. The rooftop of VivoCity has a good view of Sentosa and the southern islands.", "address": "81 Telok Blangah Road, Singapore 098867", "link": "https://www.vivocity.com.sg" }
]
